{
    "pagination": {
        "next": "8e2c595975d1ec6ac07d3b30e42b5c"
    },
    "count": 31710,
    "result": [
        {
            "soleadify_id": "c0c64d20-93e4-11eb-8859-29e7c34dee35",
            "company_name": "Wether Spoon",
            "company_legal_names": [
                "J D Wetherspoon plc."
            ],
            "company_commercial_names": [
                "The Unicorn - JD Wetherspoon",
                "The Barking Dog - Jd Wetherspoon",
                "Wetherspoons",
                "Wether Spoon"
            ],
            "main_country_code": "GB",
            "main_country": "United Kingdom",
            "main_region": "England",
            "main_city": "London",
            "main_street": "Uxbridge Road",
            "main_street_number": "250",
            "main_postcode": "HA5 4HS",
            "main_latitude": 51.60833740234375,
            "main_longitude": -0.37269648909568787,
            "locations": [
                {
                    "country_code": "GB",
                    "country": "United Kingdom",
                    "region": "England",
                    "city": "Hazel Grove",
                    "postcode": "SK7 4DF",
                    "street": "London Road",
                    "street_number": "204",
                    "latitude": 53.3794284,
                    "longitude": -2.1206302
                },
                {
                    "country_code": "GB",
                    "country": "United Kingdom",
                    "region": "Wales",
                    "city": "Rhondda Cynon Taf",
                    "postcode": "CF44 7AA",
                    "street": "High Street",
                    "street_number": "6",
                    "latitude": 51.7128396,
                    "longitude": -3.4468099
                },
                {
                    "country_code": "GB",
                    "country": "United Kingdom",
                    "region": "England",
                    "city": "London",
                    "postcode": "EC1V 9BP",
                    "street": "Old Street",
                    "street_number": "168-172",
                    "latitude": 51.52516174316406,
                    "longitude": -0.0905437022447586
                },
                {
                    "country_code": "GB",
                    "country": "United Kingdom",
                    "region": "England",
                    "city": "Dudley",
                    "postcode": "DY1 1PY",
                    "street": "High Street",
                    "street_number": "58-60",
                    "latitude": 52.50819778442383,
                    "longitude": -2.088266134262085
                },
                {
                    "country_code": "GB",
                    "country": "United Kingdom",
                    "region": "England",
                    "city": "Thirsk",
                    "postcode": "YO7 1LH",
                    "street": "Market Place",
                    "street_number": "54",
                    "latitude": 54.2328344,
                    "longitude": -1.3417405
                },
                {
                    "country_code": "GB",
                    "country": "United Kingdom",
                    "region": "England",
                    "city": "Sunderland",
                    "postcode": "DH4 4BN",
                    "street": "Frederick Gardens",
                    "street_number": null,
                    "latitude": null,
                    "longitude": null
                },
                {
                    "country_code": "GB",
                    "country": "United Kingdom",
                    "region": "England",
                    "city": "Bristol",
                    "postcode": "BS15 8HP",
                    "street": "Regent Street",
                    "street_number": "94-96",
                    "latitude": 51.46226119995117,
                    "longitude": -2.506937265396118
                },
                {
                    "country_code": "GB",
                    "country": "United Kingdom",
                    "region": "Scotland",
                    "city": "Ayr",
                    "postcode": "KA7 1BX",
                    "street": "Sandgate",
                    "street_number": "58a",
                    "latitude": 55.4629020690918,
                    "longitude": -4.634444236755371
                },
                {
                    "country_code": "GB",
                    "country": "United Kingdom",
                    "region": "England",
                    "city": "Wakefield",
                    "postcode": "WF8 4HA",
                    "street": "Wakefield Road",
                    "street_number": null,
                    "latitude": null,
                    "longitude": null
                },
                {
                    "country_code": "GB",
                    "country": "United Kingdom",
                    "region": "England",
                    "city": "Shrewsbury",
                    "postcode": "SY1 1HH",
                    "street": "Lower Claremont Bank",
                    "street_number": null,
                    "latitude": null,
                    "longitude": null
                }
            ],
            "num_locations": 822,
            "company_type": "Public",
            "year_founded": 1979,
            "employee_count": 42127,
            "estimated_revenue": 1600000000,
            "short_description": "Wetherspoon, founded in 1979 is a national chain across the whole of the UK & Ireland, with our award winning pubs & hotels, we are sure you won't be disappointed !",
            "long_description": "J D Wetherspoon plc is a pub company operating in the United Kingdom and Ireland . The company was founded in 1979 by Tim Martin and is based in Watford . It owns and operates pubs and hotels throughout the UK and Ireland, providing customers with good-value food and drinks in a pleasant and welcoming atmosphere. The company also offers a range of services such as live entertainment, gaming machines, and discounts for students and senior citizens.",
            "business_tags": [
                "Search For Hotels",
                "Hotels Booking",
                "City Hotel"
            ],
            "main_business_category": "Pubs & Bars",
            "main_industry": "Food & Beverage",
            "main_sector": null,
            "primary_phone": "+441619264610",
            "phone_numbers": [
                "+441619264610",
                "+441293827910",
                "+442085079109",
                "+441296486280",
                "+441989760920",
                "+441132770109",
                "+441253783080",
                "+441908528854",
                "+441913706540",
                "+441413319810",
                "+441592755252",
                "+441213325910",
                "+441454272500",
                "+441248387900"
            ],
            "primary_email": "p1664@jdwetherspoon.co.uk",
            "emails": null,
            "other_emails": null,
            "website_url": "https://www.jdwetherspoon.com/",
            "website_domain": "jdwetherspoon.com",
            "website_tld": "com",
            "website_language_code": "en",
            "facebook_url": "https://www.facebook.com/JDWUnicorn/",
            "twitter_url": null,
            "instagram_url": null,
            "linkedin_url": "https://linkedin.com/company/jd-wetherspoon1",
            "ios_app_url": "tps://itunes.apple.com/gb/app/wetherspoon-order-and-pay/id1003707932?mt",
            "android_app_url": "tps://play.google.com/store/apps/details?id=com.wetherspoon.orderandp",
            "youtube_url": null,
            "cms": "sitecore",
            "alexa_rank": null,
            "technologies": [
                "javascript libraries: jquery ui - 1.11.4",
                "cms: sitecore",
                "javascript frameworks: angularjs",
                "javascript frameworks: jquery - 1.9.1",
                "web frameworks: microsoft asp.net - 4.0.30319",
                "javascript libraries: jquery - 1.9.1",
                "a/b testing: crazy egg",
                "javascript libraries: modernizr",
                "web servers: iis - 8.5",
                "javascript frameworks: jquery ui - 1.11.4",
                "analytics: crazy egg",
                "javascript frameworks: modernizr",
                "operating systems: windows server",
                "tag managers: google tag manager",
                "analytics: pingdom rum",
                "analytics: google analytics",
                "web frameworks: microsoft asp.net",
                "web servers: iis"
            ],
            "naics_2022": {
                "primary": {
                    "code": "722410",
                    "label": "Drinking Places (Alcoholic Beverages)"
                },
                "secondary": [
                    {
                        "code": "721120",
                        "label": "Casino Hotels"
                    }
                ]
            },
            "nace_rev2": [
                {
                    "code": "56.3",
                    "label": "Beverage serving activities"
                }
            ],
            "ncci_codes_28_1": [
                "9084"
            ],
            "sic": [
                {
                    "code": "5813",
                    "label": "Drinking Places (Alcoholic Beverages)"
                }
            ],
            "isic_v4": [
                {
                    "code": "5630",
                    "label": "Beverage serving activities"
                }
            ],
            "sics_industry": {
                "code": "FB-RN",
                "label": "Restaurants"
            },
            "sics_subsector": {
                "code": "FB.4",
                "label": "Restaurants"
            },
            "sics_sector": {
                "code": "FB",
                "label": "Food & Beverage"
            },
            "ibc_insurance": null,
            "created_at": "2019-11-24T11:08:22.000Z",
            "last_updated_at": "2023-09-02T21:35:44.681Z"
        },
        {
            "soleadify_id": "7ab34e52-93e4-11eb-91fb-73d498260b10",
            "company_name": "Domino's Pizza Group",
            "company_legal_names": [
                "Domino's Pizza Group plc."
            ],
            "company_commercial_names": [
                "Domino's Pizza Group",
                "Domino's Pizza United Kingdom"
            ],
            "main_country_code": "GB",
            "main_country": "United Kingdom",
            "main_region": "England",
            "main_city": "Milton Keynes",
            "main_street": "Lasborough Road",
            "main_street_number": "1",
            "main_postcode": "MK10 0AB",
            "main_latitude": 52.03510284423828,
            "main_longitude": -0.6840007901191711,
            "locations": [
                {
                    "country_code": "GB",
                    "country": "United Kingdom",
                    "region": "England",
                    "city": "Slough",
                    "postcode": "SL3 8HJ",
                    "street": "Harrow Road",
                    "street_number": "1 & 1a",
                    "latitude": 51.50309753417969,
                    "longitude": -0.5515905022621155
                },
                {
                    "country_code": "GB",
                    "country": "United Kingdom",
                    "region": "England",
                    "city": "Leicester",
                    "postcode": "LE3 2AP",
                    "street": "Narborough Road",
                    "street_number": "240",
                    "latitude": 52.62234115600586,
                    "longitude": -1.1553751230239868
                },
                {
                    "country_code": "GB",
                    "country": "United Kingdom",
                    "region": "England",
                    "city": "Bristol",
                    "postcode": "BS8 2PL",
                    "street": "Whiteladies Road",
                    "street_number": "119",
                    "latitude": 51.464698791503906,
                    "longitude": -2.609410047531128
                },
                {
                    "country_code": "GB",
                    "country": "United Kingdom",
                    "region": "England",
                    "city": "Plymouth",
                    "postcode": "PL7 2XS",
                    "street": "Glen Road",
                    "street_number": null,
                    "latitude": null,
                    "longitude": null
                },
                {
                    "country_code": "GB",
                    "country": "United Kingdom",
                    "region": "England",
                    "city": "Portsmouth",
                    "postcode": "PO2 0BH",
                    "street": "London Road",
                    "street_number": "53",
                    "latitude": 50.81481170654297,
                    "longitude": -1.0801118612289429
                },
                {
                    "country_code": "GB",
                    "country": "United Kingdom",
                    "region": "England",
                    "city": "Manchester",
                    "postcode": "M1 7HE",
                    "street": "Grosvenor Street",
                    "street_number": "129",
                    "latitude": 53.47037124633789,
                    "longitude": -2.2362024784088135
                },
                {
                    "country_code": "GB",
                    "country": "United Kingdom",
                    "region": "England",
                    "city": "London",
                    "postcode": "N14 5JP",
                    "street": "Hampden Square",
                    "street_number": "11",
                    "latitude": 51.63227844238281,
                    "longitude": -0.14287839829921722
                },
                {
                    "country_code": "GB",
                    "country": "United Kingdom",
                    "region": "England",
                    "city": "Chester",
                    "postcode": "CH2 1QL",
                    "street": "Weston Grove",
                    "street_number": "Unit 2",
                    "latitude": 53.214473724365234,
                    "longitude": -2.8802151679992676
                },
                {
                    "country_code": "GB",
                    "country": "United Kingdom",
                    "region": "England",
                    "city": "Northampton",
                    "postcode": "NN3 8JL",
                    "street": "Octagon Way",
                    "street_number": "unit 8",
                    "latitude": 52.256065368652344,
                    "longitude": -0.836236298084259
                },
                {
                    "country_code": "GB",
                    "country": "United Kingdom",
                    "region": "England",
                    "city": "Birmingham",
                    "postcode": "B31 2PA",
                    "street": "Northfield Road",
                    "street_number": "859",
                    "latitude": 52.41653060913086,
                    "longitude": -1.946556806564331
                }
            ],
            "num_locations": 1220,
            "company_type": "Public",
            "year_founded": 1985,
            "employee_count": null,
            "estimated_revenue": null,
            "short_description": "Domino's Pizza Group plc is a United Kingdom-based master franchise of international fast food pizza delivery chain Domino's Pizza.",
            "long_description": "Domino's Pizza Group plc is a United Kingdom-based master franchise of international fast food pizza delivery chain Domino's Pizza. The company is listed on the London Stock Exchange and is a constituent of the FTSE 250 Index. Domino's Pizza Group is the largest master franchisee in the Domino's system (see Domino's Pizza§Franchises), measured by retail sales and store profits.",
            "business_tags": [
                "Pizza Delivery",
                "Fast Foods"
            ],
            "main_business_category": "Fast food Restaurants",
            "main_industry": "Food & Beverage",
            "main_sector": null,
            "primary_phone": null,
            "phone_numbers": null,
            "primary_email": null,
            "emails": null,
            "other_emails": null,
            "website_url": "https://www.dominos.co.uk",
            "website_domain": "dominos.co.uk",
            "website_tld": "co.uk",
            "website_language_code": null,
            "facebook_url": null,
            "twitter_url": null,
            "instagram_url": null,
            "linkedin_url": "https://linkedin.com/company/dominos-pizza-uk-and-ireland-ltd",
            "ios_app_url": null,
            "android_app_url": null,
            "youtube_url": null,
            "cms": "orchard cms",
            "alexa_rank": 35600,
            "technologies": [
                "web servers: iis - 10.0",
                "ui frameworks: bootstrap",
                "web frameworks: bootstrap",
                "javascript frameworks: jquery - 1.9.1",
                "web frameworks: microsoft asp.net - 4.0.30319",
                "javascript libraries: jquery - 1.9.1",
                "font scripts: google font api",
                "javascript libraries: modernizr",
                "javascript frameworks: handlebars - 1.1.2",
                "cms: orchard cms",
                "javascript frameworks: modernizr",
                "operating systems: windows server",
                "analytics: google analytics"
            ],
            "naics_2022": {
                "primary": {
                    "code": "722513",
                    "label": "Limited-Service Restaurants"
                },
                "secondary": [
                    {
                        "code": "722511",
                        "label": "Full-Service Restaurants"
                    }
                ]
            },
            "nace_rev2": [
                {
                    "code": "56.1",
                    "label": "Restaurants and mobile food service activities"
                }
            ],
            "ncci_codes_28_1": [
                "9082",
                "9083"
            ],
            "sic": [
                {
                    "code": "5812",
                    "label": "Eating Places (limited-service restaurants)"
                }
            ],
            "isic_v4": [
                {
                    "code": "5610",
                    "label": "Restaurants and mobile food service activities"
                }
            ],
            "sics_industry": null,
            "sics_subsector": null,
            "sics_sector": null,
            "ibc_insurance": null,
            "created_at": "2022-05-21T16:51:03.279Z",
            "last_updated_at": "2023-06-12T14:04:27.338Z"
        },
        {
            "soleadify_id": "a65bc242-93e4-11eb-b997-8dd98d09cf25",
            "company_name": "PizzaExpress",
            "company_legal_names": null,
            "company_commercial_names": [
                "PizzaExpress"
            ],
            "main_country_code": "GB",
            "main_country": "United Kingdom",
            "main_region": "England",
            "main_city": "Islington",
            "main_street": "Bow Street",
            "main_street_number": "9-12",
            "main_postcode": "WC2E 7AH",
            "main_latitude": 51.51357650756836,
            "main_longitude": -0.12262620031833649,
            "locations": [
                {
                    "country_code": "GB",
                    "country": "United Kingdom",
                    "region": "England",
                    "city": "London",
                    "postcode": "W12 7GF",
                    "street": "Ariel Way",
                    "street_number": null,
                    "latitude": null,
                    "longitude": null
                },
                {
                    "country_code": "GB",
                    "country": "United Kingdom",
                    "region": "England",
                    "city": "London",
                    "postcode": "SW17 7HR",
                    "street": "Trinity Road",
                    "street_number": "198-200",
                    "latitude": 51.442752838134766,
                    "longitude": -0.16677320003509521
                },
                {
                    "country_code": "GB",
                    "country": "United Kingdom",
                    "region": "England",
                    "city": "Loughton",
                    "postcode": "IG10 1AH",
                    "street": "High Road",
                    "street_number": "281/283",
                    "latitude": 51.65001678466797,
                    "longitude": 0.05744149908423424
                },
                {
                    "country_code": "GB",
                    "country": "United Kingdom",
                    "region": "England",
                    "city": "London",
                    "postcode": "NW1 2RA",
                    "street": "Euston Road",
                    "street_number": "93-99",
                    "latitude": 51.52547073364258,
                    "longitude": -0.13589349389076233
                },
                {
                    "country_code": "GB",
                    "country": "United Kingdom",
                    "region": "England",
                    "city": "Castleford",
                    "postcode": "WF10 4TA",
                    "street": "Colorado Way",
                    "street_number": null,
                    "latitude": null,
                    "longitude": null
                },
                {
                    "country_code": "GB",
                    "country": "United Kingdom",
                    "region": "England",
                    "city": "Banstead",
                    "postcode": "SM7 2LJ",
                    "street": "High Street",
                    "street_number": "24",
                    "latitude": 51.321956634521484,
                    "longitude": -0.20377379655838013
                },
                {
                    "country_code": "GB",
                    "country": "United Kingdom",
                    "region": "England",
                    "city": "Wilmslow",
                    "postcode": "SK9 1PL",
                    "street": "Alderley Road",
                    "street_number": "26-28",
                    "latitude": 53.32598876953125,
                    "longitude": -2.229813575744629
                },
                {
                    "country_code": "IN",
                    "country": "India",
                    "region": "Rajasthan",
                    "city": "Gordhanpura Near Koli",
                    "postcode": null,
                    "street": null,
                    "street_number": null,
                    "latitude": null,
                    "longitude": null
                },
                {
                    "country_code": "GB",
                    "country": "United Kingdom",
                    "region": "England",
                    "city": "Beaconsfield",
                    "postcode": "HP9 2JH",
                    "street": "London End",
                    "street_number": "14",
                    "latitude": 51.6016845703125,
                    "longitude": -0.6359142065048218
                },
                {
                    "country_code": "GB",
                    "country": "United Kingdom",
                    "region": "England",
                    "city": "Elmbridge",
                    "postcode": "KT8 9BE",
                    "street": "Creek Road",
                    "street_number": "19",
                    "latitude": 51.402000427246094,
                    "longitude": -0.34443020820617676
                }
            ],
            "num_locations": 384,
            "company_type": "Private",
            "year_founded": 1965,
            "employee_count": null,
            "estimated_revenue": null,
            "short_description": "PizzaExpress is a British multinational restaurant group, owned by a group of bondholders.",
            "long_description": "PizzaExpress is a British multinational restaurant group, owned by a group of bondholders. It has over 470 restaurants across the United Kingdom and 100 overseas in Europe, Hong Kong, China, India, Indonesia, Kuwait, the Philippines, the United Arab Emirates, Singapore and Saudi Arabia. It was founded in 1965 by Peter Boizot. In July 2020, the business was taken over by its bondholders under a debt-for-equity swap with previous owner Hony Capital. In November 2020, Hony Capital left the business and the group restructure was completed, helping to cut the casual dining chain's debt by more than £400 million.",
            "business_tags": [
                "Summer Menu",
                "Soft Drinks",
                "Super Market",
                "Casual Dining",
                "Wall Ovens"
            ],
            "main_business_category": "Pizza & Italian Restaurants",
            "main_industry": "Food & Beverage",
            "main_sector": null,
            "primary_phone": null,
            "phone_numbers": null,
            "primary_email": "investor@pizzaexpress.com",
            "emails": [
                "bookings@pizzaexpress.com",
                "investor@pizzaexpress.com",
                "legal@pizzaexpress.com"
            ],
            "other_emails": null,
            "website_url": "https://www.pizzaexpress.com/",
            "website_domain": "pizzaexpress.com",
            "website_tld": "com",
            "website_language_code": "en",
            "facebook_url": "https://www.facebook.com/pizzaexpress/",
            "twitter_url": "https://twitter.com/PizzaExpress",
            "instagram_url": "https://www.instagram.com/pizzaexpress/",
            "linkedin_url": "https://www.linkedin.com/company/pizzaexpress",
            "ios_app_url": "tps://apps.apple.com/gb/app/pizzaexpress/id4405650",
            "android_app_url": "tps://play.google.com/store/apps/details?id=com.pizzaexpress.app",
            "youtube_url": "https://www.youtube.com/user/PizzaExpressTube",
            "cms": "sitecore",
            "alexa_rank": null,
            "technologies": [
                "analytics: tiktok pixel",
                "web frameworks: materialize css",
                "analytics: facebook custom audiences",
                "paas: azure",
                "cms: sitecore",
                "maps: google maps",
                "javascript libraries: slick",
                "issue trackers: sentry",
                "web frameworks: microsoft asp.net",
                "javascript libraries: jquery - 3.4.1",
                "javascript frameworks: jquery - 3.4.1",
                "widgets: facebook",
                "retargeting: facebook custom audiences",
                "cdn: jsdelivr",
                "operating systems: windows server",
                "javascript frameworks: slick",
                "web servers: iis",
                "tag managers: google tag manager",
                "retargeting: google remarketing tag",
                "analytics: facebook analytics",
                "advertising: thetradedesk",
                "retargeting: facebook",
                "advertising networks: sizmek",
                "analytics: facebook pixel",
                "cdn: cloudflare",
                "advertising: twitter ads",
                "ui frameworks: materialize css",
                "analytics: google analytics",
                "social login: google sign-in",
                "authentication: google sign-in",
                "widgets: google plus",
                "advertising networks: appnexus",
                "font scripts: google font api",
                "web servers: apache",
                "analytics: google ads conversion tracking"
            ],
            "naics_2022": {
                "primary": {
                    "code": "722511",
                    "label": "Full-Service Restaurants"
                },
                "secondary": [
                    {
                        "code": "722513",
                        "label": "Limited-Service Restaurants"
                    }
                ]
            },
            "nace_rev2": [
                {
                    "code": "56.1",
                    "label": "Restaurants and mobile food service activities"
                }
            ],
            "ncci_codes_28_1": [
                "9082"
            ],
            "sic": [
                {
                    "code": "5812",
                    "label": "Eating Places (full-service restaurants)"
                }
            ],
            "isic_v4": [
                {
                    "code": "5610",
                    "label": "Restaurants and mobile food service activities"
                }
            ],
            "sics_industry": {
                "code": "FB-RN",
                "label": "Restaurants"
            },
            "sics_subsector": {
                "code": "FB.4",
                "label": "Restaurants"
            },
            "sics_sector": {
                "code": "FB",
                "label": "Food & Beverage"
            },
            "ibc_insurance": null,
            "created_at": "2019-11-23T23:41:50.000Z",
            "last_updated_at": "2023-07-11T03:28:14.000Z"
        },
        {
            "soleadify_id": "33e2af60-93e5-11eb-b4a6-27899be4e45d",
            "company_name": "Zizzi",
            "company_legal_names": [
                "Zizzi Restaurants Limited",
                "Zizzi. Bank those Zs."
            ],
            "company_commercial_names": [
                "Zizzi",
                "Zizzi Restaurants"
            ],
            "main_country_code": "GB",
            "main_country": "United Kingdom",
            "main_region": "England",
            "main_city": "City Of Westminster",
            "main_street": "Balcombe Street",
            "main_street_number": "2",
            "main_postcode": "NW1 6NW",
            "main_latitude": 51.52333450317383,
            "main_longitude": -0.16197669506072998,
            "locations": [
                {
                    "country_code": "GB",
                    "country": "United Kingdom",
                    "region": "England",
                    "city": "Chichester",
                    "postcode": "PO19 1DR",
                    "street": "South Street",
                    "street_number": "43",
                    "latitude": 50.83414840698242,
                    "longitude": -0.7795988917350769
                },
                {
                    "country_code": "GB",
                    "country": "United Kingdom",
                    "region": "England",
                    "city": "Bournemouth",
                    "postcode": "BH2 6HE",
                    "street": "The Square",
                    "street_number": "5",
                    "latitude": 50.7203483581543,
                    "longitude": -1.8795926570892334
                },
                {
                    "country_code": "GB",
                    "country": "United Kingdom",
                    "region": "England",
                    "city": "Maidstone",
                    "postcode": "ME14 1PS",
                    "street": "Earl Street",
                    "street_number": "46,48,50",
                    "latitude": 51.274803161621094,
                    "longitude": 0.5208531022071838
                },
                {
                    "country_code": "GB",
                    "country": "United Kingdom",
                    "region": "England",
                    "city": "London",
                    "postcode": "SW1E 5JE",
                    "street": "Cardinal Walk",
                    "street_number": "15",
                    "latitude": 51.497440338134766,
                    "longitude": -0.14076749980449677
                },
                {
                    "country_code": "GB",
                    "country": "United Kingdom",
                    "region": "England",
                    "city": "Cambridge",
                    "postcode": "CB2 1AB",
                    "street": "Regent Street",
                    "street_number": "47-53",
                    "latitude": 52.20106887817383,
                    "longitude": 0.12600809335708618
                },
                {
                    "country_code": "GB",
                    "country": "United Kingdom",
                    "region": "England",
                    "city": "Oxford",
                    "postcode": "OX1 2BE",
                    "street": "George Street",
                    "street_number": "59",
                    "latitude": 51.75335693359375,
                    "longitude": -1.2623796463012695
                },
                {
                    "country_code": "GB",
                    "country": "United Kingdom",
                    "region": "England",
                    "city": "London",
                    "postcode": "E14 4QT",
                    "street": "Cabot Square",
                    "street_number": "15",
                    "latitude": 51.505191802978516,
                    "longitude": -0.020401600748300552
                },
                {
                    "country_code": "GB",
                    "country": "United Kingdom",
                    "region": "England",
                    "city": "Stockport",
                    "postcode": "SK1 1SA",
                    "street": "Bridgefield Street",
                    "street_number": "4",
                    "latitude": 53.41240692138672,
                    "longitude": -2.16055965423584
                },
                {
                    "country_code": "GB",
                    "country": "United Kingdom",
                    "region": "England",
                    "city": "Kingston upon Hull",
                    "postcode": "HU2 8LN",
                    "street": "Ferensway",
                    "street_number": "50a 110",
                    "latitude": 53.74726486206055,
                    "longitude": -0.3466537892818451
                },
                {
                    "country_code": "GB",
                    "country": "United Kingdom",
                    "region": "England",
                    "city": "London",
                    "postcode": "BR3 1AE",
                    "street": "High Street",
                    "street_number": "157",
                    "latitude": 51.40744400024414,
                    "longitude": -0.027682000771164894
                }
            ],
            "num_locations": 132,
            "company_type": "Private",
            "year_founded": 1999,
            "employee_count": 1100,
            "estimated_revenue": 2500000,
            "short_description": "Zizzi is an Italian restaurant group in the UK & Ireland. Experience delicious Italian food in uniquely designed restaurants.",
            "long_description": "Zizzi is a chain of Italian-inspired restaurants in the United Kingdom and Ireland. In February 2015, Bridgepoint Capital completed a £250 million acquisition of ASK Italian and Zizzi, and subsequently bought by TowerBrook Capital Partners in 2020.",
            "business_tags": [
                "Italian Restaurants",
                "Italian Food",
                "Pizza Ovens",
                "Meals Delivered",
                "Garlic Bread",
                "Meat Lovers",
                "Cocktails"
            ],
            "main_business_category": "Pizza & Italian Restaurants",
            "main_industry": "Food & Beverage",
            "main_sector": "Accommodation & Food Services",
            "primary_phone": "+442078210402",
            "phone_numbers": [
                "+442031059071",
                "+442033022734",
                "+442078210402"
            ],
            "primary_email": "recruitment@zizzi.co.uk",
            "emails": [
                "feedback@zizzi.co.uk",
                "privacy@zizzi.co.uk",
                "recruitment@zizzi.co.uk"
            ],
            "other_emails": [
                "zizziincident@zizzi.co.uk"
            ],
            "website_url": "https://www.zizzi.co.uk/",
            "website_domain": "zizzi.co.uk",
            "website_tld": "co.uk",
            "website_language_code": "en",
            "facebook_url": "https://www.facebook.com/wearezizzi/",
            "twitter_url": "https://twitter.com/WeAreZizzi",
            "instagram_url": "https://www.instagram.com/wearezizzi/",
            "linkedin_url": "https://linkedin.com/company/zizzi-restaurants",
            "ios_app_url": null,
            "android_app_url": null,
            "youtube_url": null,
            "cms": "wordpress",
            "alexa_rank": null,
            "technologies": [
                "wordpress plugins: yoast seo - 18.2",
                "seo tool: yoast seo premium - 18.1",
                "miscellaneous: webpack",
                "seo tool: yoast seo - 18.2",
                "paas: amazon web services",
                "blogging platforms: wordpress",
                "databases: mysql",
                "reverse proxy: nginx",
                "seo tool: facebook friendly",
                "cms: wordpress",
                "tag managers: google tag manager",
                "web servers: nginx",
                "programming languages: php",
                "cdn: amazon cloudfront",
                "programming languages: php - 8.0.28",
                "analytics: google analytics"
            ],
            "naics_2022": {
                "primary": {
                    "code": "722511",
                    "label": "Full-Service Restaurants"
                },
                "secondary": [
                    {
                        "code": "722513",
                        "label": "Limited-Service Restaurants"
                    }
                ]
            },
            "nace_rev2": [
                {
                    "code": "56.1",
                    "label": "Restaurants and mobile food service activities"
                }
            ],
            "ncci_codes_28_1": [
                "9082"
            ],
            "sic": [
                {
                    "code": "5812",
                    "label": "Eating Places (full-service restaurants)"
                }
            ],
            "isic_v4": [
                {
                    "code": "5610",
                    "label": "Restaurants and mobile food service activities"
                }
            ],
            "sics_industry": {
                "code": "FB-RN",
                "label": "Restaurants"
            },
            "sics_subsector": {
                "code": "FB.4",
                "label": "Restaurants"
            },
            "sics_sector": {
                "code": "FB",
                "label": "Food & Beverage"
            },
            "ibc_insurance": [
                {
                    "code": "730101",
                    "label": "Restaurant Cooking / Exhaust Systems Maintenance / Cleaning"
                },
                {
                    "code": "581201",
                    "label": "Restaurants (Liquor License - No Live Entertainment / Dancing)"
                },
                {
                    "code": "581101",
                    "label": "Restaurants (No Liquor License)"
                },
                {
                    "code": "740801",
                    "label": "Business Services - Not Otherwise Classified"
                },
                {
                    "code": "581402",
                    "label": "Restaurants (Food Court / Food Truck / Food Cart - No Canteen Trucks)"
                }
            ],
            "created_at": "2019-11-24T10:43:14.000Z",
            "last_updated_at": "2023-09-06T17:00:01.038Z"
        },
        {
            "soleadify_id": "119148e1-93e5-11eb-90d2-e3355a7e800b",
            "company_name": "Wagamama",
            "company_legal_names": null,
            "company_commercial_names": [
                "Wagamama"
            ],
            "main_country_code": "GB",
            "main_country": "United Kingdom",
            "main_region": "England",
            "main_city": "London",
            "main_street": "Sumner Street",
            "main_street_number": "18-20",
            "main_postcode": "SE1 9JZ",
            "main_latitude": 51.50628662109375,
            "main_longitude": -0.10058949887752533,
            "locations": [
                {
                    "country_code": "GB",
                    "country": "United Kingdom",
                    "region": "England",
                    "city": "Romford",
                    "postcode": "RM1 1AU",
                    "street": "Exchange Street",
                    "street_number": "the",
                    "latitude": 51.57594299316406,
                    "longitude": 0.1804375946521759
                },
                {
                    "country_code": "GB",
                    "country": "United Kingdom",
                    "region": "England",
                    "city": "Bristol",
                    "postcode": "BS8 1QL",
                    "street": "Queens Road",
                    "street_number": "61-63",
                    "latitude": 51.4578971862793,
                    "longitude": -2.6122798919677734
                },
                {
                    "country_code": "GB",
                    "country": "United Kingdom",
                    "region": "England",
                    "city": "Lincoln",
                    "postcode": "LN1 1YX",
                    "street": null,
                    "street_number": null,
                    "latitude": null,
                    "longitude": null
                },
                {
                    "country_code": "GB",
                    "country": "United Kingdom",
                    "region": "England",
                    "city": "London",
                    "postcode": "EN1 1UY",
                    "street": "Southbury Road",
                    "street_number": null,
                    "latitude": null,
                    "longitude": null
                },
                {
                    "country_code": "GB",
                    "country": "United Kingdom",
                    "region": "England",
                    "city": "Nottingham",
                    "postcode": "NG1 4DB",
                    "street": "Burton Street",
                    "street_number": null,
                    "latitude": null,
                    "longitude": null
                },
                {
                    "country_code": "GB",
                    "country": "United Kingdom",
                    "region": "England",
                    "city": "London",
                    "postcode": "EC3A 2BG",
                    "street": "Fenchurch Street",
                    "street_number": "120",
                    "latitude": 51.51277160644531,
                    "longitude": -0.07843910157680511
                },
                {
                    "country_code": "GB",
                    "country": "United Kingdom",
                    "region": "England",
                    "city": "Bolton",
                    "postcode": "BL6 6JA",
                    "street": "The Linkway",
                    "street_number": null,
                    "latitude": null,
                    "longitude": null
                },
                {
                    "country_code": "GB",
                    "country": "United Kingdom",
                    "region": "England",
                    "city": "City of Westminster",
                    "postcode": "W2 6HY",
                    "street": "Sheldon Square",
                    "street_number": "3",
                    "latitude": 51.51963806152344,
                    "longitude": -0.180520698428154
                },
                {
                    "country_code": "GB",
                    "country": "United Kingdom",
                    "region": "England",
                    "city": "London",
                    "postcode": "SW11 8BH",
                    "street": "Prospect Way",
                    "street_number": "5",
                    "latitude": 51.479557037353516,
                    "longitude": -0.1424809992313385
                },
                {
                    "country_code": "GB",
                    "country": "United Kingdom",
                    "region": "Wales",
                    "city": "Cardiff",
                    "postcode": "CF10 5BZ",
                    "street": "Tacoma Square",
                    "street_number": "unit u12",
                    "latitude": 51.46337890625,
                    "longitude": -3.1651387214660645
                }
            ],
            "num_locations": 150,
            "company_type": "Private",
            "year_founded": 1992,
            "employee_count": null,
            "estimated_revenue": null,
            "short_description": "Wagamama (stylised as wagamama) is a British restaurant chain, serving Asian food based on Japanese cuisine.",
            "long_description": "Wagamama (stylised as wagamama) is a British restaurant chain, serving Asian food based on Japanese cuisine.",
            "business_tags": [
                "Asian Foods",
                "Bowl And Plate",
                "Open Kitchen",
                "British Restaurant",
                "Soul Food",
                "Japanese Cuisine",
                "Asian Cuisine",
                "Fresh Juices",
                "Hot Drinks",
                "Allergens"
            ],
            "main_business_category": "Asian Restaurants",
            "main_industry": "Food & Beverage",
            "main_sector": "Accommodation & Food Services",
            "primary_phone": null,
            "phone_numbers": null,
            "primary_email": "press@wagamama.com",
            "emails": [
                "franchise@wagamama.com",
                "gdpr@wagamama.com",
                "press@wagamama.com"
            ],
            "other_emails": [
                "giftcards@wagamama.com"
            ],
            "website_url": "https://wagamama.com/",
            "website_domain": "wagamama.com",
            "website_tld": "com",
            "website_language_code": "en",
            "facebook_url": "https://www.facebook.com/wagamama/",
            "twitter_url": "https://twitter.com/wagamama_uk",
            "instagram_url": "https://www.instagram.com/wagamama_uk/",
            "linkedin_url": "https://linkedin.com/company/wagamama",
            "ios_app_url": null,
            "android_app_url": null,
            "youtube_url": null,
            "cms": "datocms",
            "alexa_rank": 342437,
            "technologies": [
                "javascript frameworks: nuxt.js",
                "javascript frameworks: vue.js",
                "paas: amazon web services",
                "miscellaneous: onetrust",
                "miscellaneous: optanon",
                "reverse proxy: nginx",
                "cdn: sucuri",
                "cms: datocms",
                "cookie compliance: onetrust",
                "seo tool: facebook friendly",
                "programming languages: node.js",
                "miscellaneous: amazon s3",
                "tag managers: google tag manager",
                "seo tool: twitter friendly",
                "web servers: nginx",
                "wordpress plugins: sucuri",
                "cdn: amazon cloudfront"
            ],
            "naics_2022": {
                "primary": {
                    "code": "722511",
                    "label": "Full-Service Restaurants"
                },
                "secondary": null
            },
            "nace_rev2": [
                {
                    "code": "56.1",
                    "label": "Restaurants and mobile food service activities"
                }
            ],
            "ncci_codes_28_1": [
                "9082"
            ],
            "sic": [
                {
                    "code": "5812",
                    "label": "Eating Places (full-service restaurants)"
                }
            ],
            "isic_v4": [
                {
                    "code": "5610",
                    "label": "Restaurants and mobile food service activities"
                }
            ],
            "sics_industry": {
                "code": "FB-RN",
                "label": "Restaurants"
            },
            "sics_subsector": {
                "code": "FB.4",
                "label": "Restaurants"
            },
            "sics_sector": {
                "code": "FB",
                "label": "Food & Beverage"
            },
            "ibc_insurance": [
                {
                    "code": "581201",
                    "label": "Restaurants (Liquor License - No Live Entertainment / Dancing)"
                },
                {
                    "code": "581101",
                    "label": "Restaurants (No Liquor License)"
                },
                {
                    "code": "581401",
                    "label": "Restaurants (Take Out / Delivery - No Table Service)"
                },
                {
                    "code": "581402",
                    "label": "Restaurants (Food Court / Food Truck / Food Cart - No Canteen Trucks)"
                },
                {
                    "code": "730101",
                    "label": "Restaurant Cooking / Exhaust Systems Maintenance / Cleaning"
                }
            ],
            "created_at": "2019-11-24T10:46:11.000Z",
            "last_updated_at": "2023-09-04T05:45:00.354Z"
        },
        {
            "soleadify_id": "4a044600-93e5-11eb-8ad6-7326edce8d21",
            "company_name": "HARVESTER",
            "company_legal_names": null,
            "company_commercial_names": [
                "HARVESTER",
                "Harvester Restaurant",
                "Harvester Restaurants",
                "Harvester UK"
            ],
            "main_country_code": "GB",
            "main_country": "United Kingdom",
            "main_region": "England",
            "main_city": "Birmingham",
            "main_street": "Fleet Street",
            "main_street_number": "27",
            "main_postcode": "B3 1JP",
            "main_latitude": 52.48218536376953,
            "main_longitude": -1.906772255897522,
            "locations": [
                {
                    "country_code": "GB",
                    "country": "United Kingdom",
                    "region": "England",
                    "city": "Bushey Heath",
                    "postcode": "WD23 1JD",
                    "street": "High Road",
                    "street_number": "107",
                    "latitude": 51.63715362548828,
                    "longitude": -0.3470562994480133
                },
                {
                    "country_code": "GB",
                    "country": "United Kingdom",
                    "region": "Wales",
                    "city": "Aberkenfig",
                    "postcode": "CF32 9SH",
                    "street": "New Street",
                    "street_number": null,
                    "latitude": null,
                    "longitude": null
                },
                {
                    "country_code": "GB",
                    "country": "United Kingdom",
                    "region": "England",
                    "city": "Bolton",
                    "postcode": "BL6 6LB",
                    "street": "Arena Approach",
                    "street_number": "1",
                    "latitude": 53.579654693603516,
                    "longitude": -2.537442207336426
                },
                {
                    "country_code": "GB",
                    "country": "United Kingdom",
                    "region": "England",
                    "city": "Hockliffe",
                    "postcode": "LU7 9NB",
                    "street": "Watling Street",
                    "street_number": null,
                    "latitude": null,
                    "longitude": null
                },
                {
                    "country_code": "GB",
                    "country": "United Kingdom",
                    "region": "England",
                    "city": "London",
                    "postcode": "SE19 3DS",
                    "street": "Beulah Hill",
                    "street_number": "41",
                    "latitude": 51.41359329223633,
                    "longitude": -0.09267620742321014
                },
                {
                    "country_code": "GB",
                    "country": "United Kingdom",
                    "region": "England",
                    "city": "Fareham",
                    "postcode": "PO14 1NS",
                    "street": "The Avenue",
                    "street_number": "14",
                    "latitude": 50.85294723510742,
                    "longitude": -1.1948970556259155
                },
                {
                    "country_code": "GB",
                    "country": "United Kingdom",
                    "region": "Wales",
                    "city": "Newport",
                    "postcode": "NP19 4QR",
                    "street": "Seven Stiles Avenue",
                    "street_number": null,
                    "latitude": null,
                    "longitude": null
                },
                {
                    "country_code": "GB",
                    "country": "United Kingdom",
                    "region": "Wales",
                    "city": "Newport",
                    "postcode": "NP20 6EP",
                    "street": "Malpas Road",
                    "street_number": "323",
                    "latitude": 51.6077853,
                    "longitude": -3.0086473
                },
                {
                    "country_code": "GB",
                    "country": "United Kingdom",
                    "region": "England",
                    "city": "Nottingham",
                    "postcode": "NG11 7AT",
                    "street": "Clifton Lane",
                    "street_number": "2;4",
                    "latitude": 52.925899505615234,
                    "longitude": -1.1604737043380737
                },
                {
                    "country_code": "GB",
                    "country": "United Kingdom",
                    "region": "England",
                    "city": "Brentwood",
                    "postcode": "CM14 4NP",
                    "street": "Essex Way",
                    "street_number": "101",
                    "latitude": 51.60261535644531,
                    "longitude": 0.2958325147628784
                }
            ],
            "num_locations": 185,
            "company_type": "Private",
            "year_founded": 1983,
            "employee_count": 1,
            "estimated_revenue": 9600000,
            "short_description": "Home of the famous salad bar, Harvester is the UK’s favourite family restaurant. Book today and enjoy our menu complete with grills & rotisserie chicken.",
            "long_description": "Harvester is a British casual dining restaurant chain with over 230 outlets (as of December 2015) in the United Kingdom. The first location was The George Inn, opening in 1983 in Morden, Greater London. The chain was seen before as a rival to Whitbread's Beefeater restaurants.",
            "business_tags": [
                "Salad Bar",
                "Rotisserie Chicken",
                "Family Restaurant",
                "Menu Choices",
                "Breakfast & Lunch",
                "Pubs & Restaurants",
                "Places To Eat",
                "Fresh Ingredients",
                "Healthy Eating"
            ],
            "main_business_category": "Restaurants",
            "main_industry": "Food & Beverage",
            "main_sector": "Accommodation & Food Services",
            "primary_phone": "+441604675300",
            "phone_numbers": [
                "+441214987098",
                "+441604675300"
            ],
            "primary_email": "contact@support.harvester.co.uk",
            "emails": [
                "contact@support.harvester.co.uk"
            ],
            "other_emails": null,
            "website_url": "https://www.harvester.co.uk/",
            "website_domain": "harvester.co.uk",
            "website_tld": "co.uk",
            "website_language_code": "en",
            "facebook_url": "https://www.facebook.com/harvesterrestaurant/",
            "twitter_url": "https://twitter.com/HarvesterUK",
            "instagram_url": "https://www.instagram.com/harvesteruk/",
            "linkedin_url": null,
            "ios_app_url": "tps://apps.apple.com/gb/app/harvester-uk/id11124756",
            "android_app_url": "tps://play.google.com/store/apps/details?id=com.mbplc.harvest",
            "youtube_url": "https://www.youtube.com/c/Harvesteruk",
            "cms": "adobe experience manager",
            "alexa_rank": null,
            "technologies": [
                "cms: adobe experience manager",
                "maps: google maps",
                "javascript frameworks: vue.js",
                "analytics: ruxit",
                "web servers: apache",
                "seo tool: facebook friendly",
                "tag managers: google tag manager",
                "seo tool: twitter friendly",
                "programming languages: java",
                "javascript libraries: jquery",
                "cdn: cloudflare",
                "security: cloudflare bot management",
                "javascript frameworks: jquery"
            ],
            "naics_2022": {
                "primary": {
                    "code": "722511",
                    "label": "Full-Service Restaurants"
                },
                "secondary": [
                    {
                        "code": "722513",
                        "label": "Limited-Service Restaurants"
                    }
                ]
            },
            "nace_rev2": [
                {
                    "code": "56.1",
                    "label": "Restaurants and mobile food service activities"
                }
            ],
            "ncci_codes_28_1": [
                "9082"
            ],
            "sic": [
                {
                    "code": "5812",
                    "label": "Eating Places (full-service restaurants)"
                }
            ],
            "isic_v4": [
                {
                    "code": "5610",
                    "label": "Restaurants and mobile food service activities"
                }
            ],
            "sics_industry": {
                "code": "FB-RN",
                "label": "Restaurants"
            },
            "sics_subsector": {
                "code": "FB.4",
                "label": "Restaurants"
            },
            "sics_sector": {
                "code": "FB",
                "label": "Food & Beverage"
            },
            "ibc_insurance": [
                {
                    "code": "581201",
                    "label": "Restaurants (Liquor License - No Live Entertainment / Dancing)"
                },
                {
                    "code": "581101",
                    "label": "Restaurants (No Liquor License)"
                },
                {
                    "code": "581401",
                    "label": "Restaurants (Take Out / Delivery - No Table Service)"
                },
                {
                    "code": "581402",
                    "label": "Restaurants (Food Court / Food Truck / Food Cart - No Canteen Trucks)"
                },
                {
                    "code": "740201",
                    "label": "Catering (No Liquor Serving)"
                }
            ],
            "created_at": "2019-11-24T11:55:03.000Z",
            "last_updated_at": "2023-08-29T20:13:58.015Z"
        },
        {
            "soleadify_id": "a2675680-93e4-11eb-919a-b3f9a5ad205c",
            "company_name": "Slug and Lettuce",
            "company_legal_names": null,
            "company_commercial_names": [
                "Slug and Lettuce"
            ],
            "main_country_code": "GB",
            "main_country": "United Kingdom",
            "main_region": "England",
            "main_city": "Luton",
            "main_street": null,
            "main_street_number": null,
            "main_postcode": "LU1 2YN",
            "main_latitude": null,
            "main_longitude": null,
            "locations": [
                {
                    "country_code": "GB",
                    "country": "United Kingdom",
                    "region": "England",
                    "city": "Doncaster",
                    "postcode": "DN1 3PD",
                    "street": "Hall Gate",
                    "street_number": "53-54",
                    "latitude": 53.52217102050781,
                    "longitude": -1.1313202381134033
                },
                {
                    "country_code": "GB",
                    "country": "United Kingdom",
                    "region": "England",
                    "city": "Wolverhampton",
                    "postcode": "WV1 1TL",
                    "street": "Queen Square",
                    "street_number": "34",
                    "latitude": 52.5857385,
                    "longitude": -2.1290825
                },
                {
                    "country_code": "GB",
                    "country": "United Kingdom",
                    "region": "England",
                    "city": "Newport",
                    "postcode": "PO30 1SS",
                    "street": "High Street",
                    "street_number": "23-26",
                    "latitude": 50.70024871826172,
                    "longitude": -1.2925976514816284
                },
                {
                    "country_code": "GB",
                    "country": "United Kingdom",
                    "region": "England",
                    "city": "London",
                    "postcode": "RM1 1NX",
                    "street": "South Street",
                    "street_number": "105-111",
                    "latitude": 51.57398223876953,
                    "longitude": 0.18393570184707642
                },
                {
                    "country_code": "GB",
                    "country": "United Kingdom",
                    "region": "England",
                    "city": "St Albans",
                    "postcode": "AL1 3JJ",
                    "street": "Victoria Street",
                    "street_number": "13-15",
                    "latitude": 51.75218963623047,
                    "longitude": -0.3375924825668335
                },
                {
                    "country_code": "GB",
                    "country": "United Kingdom",
                    "region": "England",
                    "city": "Woking",
                    "postcode": "GU21 6HX",
                    "street": "Chobham Road",
                    "street_number": "5-7",
                    "latitude": 51.32170867919922,
                    "longitude": -0.5582869052886963
                },
                {
                    "country_code": "GB",
                    "country": "United Kingdom",
                    "region": "England",
                    "city": "Reading",
                    "postcode": "RG1 1DB",
                    "street": "Friar Street",
                    "street_number": "7-9",
                    "latitude": 51.4567631,
                    "longitude": -0.9708222
                },
                {
                    "country_code": "GB",
                    "country": "United Kingdom",
                    "region": "England",
                    "city": "Chelmsford",
                    "postcode": "CM2 6FL",
                    "street": "The Meadows",
                    "street_number": null,
                    "latitude": null,
                    "longitude": null
                },
                {
                    "country_code": "GB",
                    "country": "United Kingdom",
                    "region": "England",
                    "city": "Nottingham",
                    "postcode": "NG1 6JB",
                    "street": "Long Row",
                    "street_number": "49",
                    "latitude": 52.9538302,
                    "longitude": -1.1515864
                },
                {
                    "country_code": "GB",
                    "country": "United Kingdom",
                    "region": "England",
                    "city": "Metropolitan Borough of Solihull",
                    "postcode": "B90 4SJ",
                    "street": "Monkspath Hall Road",
                    "street_number": "3",
                    "latitude": 52.39139555,
                    "longitude": -1.8019886928787696
                }
            ],
            "num_locations": 82,
            "company_type": "Private",
            "year_founded": 1985,
            "employee_count": 1520,
            "estimated_revenue": null,
            "short_description": "Join us at Slug & Lettuce for the most boujee cocktails around, delish dishes and the best vibes. Get ready to make good times with your besties...",
            "long_description": "Slug and Lettuce is a chain of bars that operate in the United Kingdom, with a large number located in London and South East England. As of 2017, there are a total of 70 outlets. Hugh Corbett opened the first Slug and Lettuce in Islington in 1985. He attempted to enhance the public house environment, at a time when standards were often low. The bars are designed for a youthful clientele, and aim to attract an equal number of men and women with \"female friendly\" designs. The chain has remained relevant by continually re-inventing itself for the contemporary marketplace. The chain has gone through a number of owners throughout its history, and is currently owned by the Stonegate Pub Company, based in Luton, Bedfordshire.",
            "business_tags": [
                "Cocktails",
                "Cocktail Making Classes",
                "Bottomless Brunch",
                "Espresso Martini",
                "Afternoon Tea",
                "Baby Showers",
                "Hen Parties",
                "Cocktail Bar",
                "Gifts For Any Occasion",
                "Brunch & Lunch"
            ],
            "main_business_category": "Pubs & Bars",
            "main_industry": "Food & Beverage",
            "main_sector": "Accommodation & Food Services",
            "primary_phone": "+443300940135",
            "phone_numbers": [
                "+441142536521",
                "+441216333049",
                "+443300940135"
            ],
            "primary_email": "info@talos360.co.uk",
            "emails": null,
            "other_emails": null,
            "website_url": "https://www.slugandlettuce.co.uk/",
            "website_domain": "slugandlettuce.co.uk",
            "website_tld": "co.uk",
            "website_language_code": "en",
            "facebook_url": "https://facebook.com/slugandlettucebars",
            "twitter_url": null,
            "instagram_url": "https://www.instagram.com/p/CuCuLC3rAxp/",
            "linkedin_url": "https://linkedin.com/company/slug-and-lettuce-leeds",
            "ios_app_url": "tps://apps.apple.com/app/id14843248",
            "android_app_url": "tps://play.google.com/store/apps/details?id=com.stonegate.slugandlettuce.iord",
            "youtube_url": null,
            "cms": null,
            "alexa_rank": null,
            "technologies": [
                "analytics: tiktok pixel",
                "analytics: facebook custom audiences",
                "paas: azure",
                "web frameworks: microsoft asp.net",
                "font scripts: google font api",
                "widgets: facebook",
                "retargeting: facebook custom audiences",
                "web frameworks: zurb foundation",
                "font scripts: font awesome",
                "operating systems: windows server",
                "analytics: microsoft clarity",
                "ui frameworks: zurb foundation",
                "web servers: iis",
                "tag managers: google tag manager",
                "javascript libraries: jquery",
                "retargeting: facebook",
                "analytics: facebook pixel",
                "javascript frameworks: jquery",
                "analytics: google analytics",
                "javascript frameworks: tweenmax",
                "miscellaneous: babel",
                "web frameworks: microsoft asp.net - 4.0.30319",
                "cdn: cloudflare"
            ],
            "naics_2022": {
                "primary": {
                    "code": "722410",
                    "label": "Drinking Places (Alcoholic Beverages)"
                },
                "secondary": [
                    {
                        "code": "722511",
                        "label": "Full-Service Restaurants"
                    }
                ]
            },
            "nace_rev2": [
                {
                    "code": "56.3",
                    "label": "Beverage serving activities"
                }
            ],
            "ncci_codes_28_1": [
                "9084"
            ],
            "sic": [
                {
                    "code": "5813",
                    "label": "Drinking Places (Alcoholic Beverages)"
                }
            ],
            "isic_v4": [
                {
                    "code": "5630",
                    "label": "Beverage serving activities"
                }
            ],
            "sics_industry": {
                "code": "FB-RN",
                "label": "Restaurants"
            },
            "sics_subsector": {
                "code": "FB.4",
                "label": "Restaurants"
            },
            "sics_sector": {
                "code": "FB",
                "label": "Food & Beverage"
            },
            "ibc_insurance": null,
            "created_at": "2019-11-24T03:10:03.000Z",
            "last_updated_at": "2023-07-07T05:47:44.000Z"
        },
        {
            "soleadify_id": "d51f58c0-93e4-11eb-b997-8dd98d09cf25",
            "company_name": "Pizza Hut UK",
            "company_legal_names": [
                "Yum! III UK Ltd."
            ],
            "company_commercial_names": [
                "Pizza Hut UK",
                "Pizza Hut UK & Europe"
            ],
            "main_country_code": "GB",
            "main_country": "United Kingdom",
            "main_region": "England",
            "main_city": "Sheffield",
            "main_street": "Abbeydale Road",
            "main_street_number": "381",
            "main_postcode": "S7 1FS",
            "main_latitude": 53.35967254638672,
            "main_longitude": -1.4796861410140991,
            "locations": [
                {
                    "country_code": "GB",
                    "country": "United Kingdom",
                    "region": "England",
                    "city": "Adur",
                    "postcode": "BN15 9AB",
                    "street": "North Road",
                    "street_number": "34",
                    "latitude": 50.82719802856445,
                    "longitude": -0.3226974904537201
                },
                {
                    "country_code": "GB",
                    "country": "United Kingdom",
                    "region": "England",
                    "city": "Newport",
                    "postcode": "PO30 2TA",
                    "street": "Furrlongs",
                    "street_number": null,
                    "latitude": null,
                    "longitude": null
                },
                {
                    "country_code": "GB",
                    "country": "United Kingdom",
                    "region": "England",
                    "city": "High Wycombe",
                    "postcode": "HP13 6LJ",
                    "street": "Castle Street",
                    "street_number": "46 48",
                    "latitude": 51.62955856323242,
                    "longitude": -0.7474842071533203
                },
                {
                    "country_code": "GB",
                    "country": "United Kingdom",
                    "region": "England",
                    "city": "Manchester",
                    "postcode": "M4 3AG",
                    "street": "Corporation Street",
                    "street_number": "15a",
                    "latitude": 53.483428955078125,
                    "longitude": -2.243238687515259
                },
                {
                    "country_code": "GB",
                    "country": "United Kingdom",
                    "region": "England",
                    "city": "Grays",
                    "postcode": "RM17 5RZ",
                    "street": "Lodge Lane",
                    "street_number": "53",
                    "latitude": 51.48915481567383,
                    "longitude": 0.3391833007335663
                },
                {
                    "country_code": "GB",
                    "country": "United Kingdom",
                    "region": "England",
                    "city": "Bradford",
                    "postcode": "BD2 4QF",
                    "street": "Otley Road",
                    "street_number": "463",
                    "latitude": 53.80109405517578,
                    "longitude": -1.742807149887085
                },
                {
                    "country_code": "GB",
                    "country": "United Kingdom",
                    "region": "England",
                    "city": "Sheffield",
                    "postcode": "S1 4EQ",
                    "street": "West Street",
                    "street_number": "95-101",
                    "latitude": 53.38092803955078,
                    "longitude": -1.4751728773117065
                },
                {
                    "country_code": "GB",
                    "country": "United Kingdom",
                    "region": "England",
                    "city": "Exeter",
                    "postcode": "EX4 6PH",
                    "street": "Sidwell Street",
                    "street_number": "67",
                    "latitude": 50.72815704345703,
                    "longitude": -3.522547721862793
                },
                {
                    "country_code": "GB",
                    "country": "United Kingdom",
                    "region": "England",
                    "city": "Canterbury",
                    "postcode": "CT1 2RY",
                    "street": "High Street",
                    "street_number": "39",
                    "latitude": 51.279109954833984,
                    "longitude": 1.0794668197631836
                },
                {
                    "country_code": "GB",
                    "country": "United Kingdom",
                    "region": "England",
                    "city": "Widnes",
                    "postcode": "WA8 6AD",
                    "street": "Widnes Road",
                    "street_number": "12",
                    "latitude": 53.366676330566406,
                    "longitude": -2.7283008098602295
                }
            ],
            "num_locations": 540,
            "company_type": "Private",
            "year_founded": 1958,
            "employee_count": 820,
            "estimated_revenue": 543000000,
            "short_description": "Treat yourself to the best pizza, sides and desserts from your nearest Pizza Hut. Get delivery or takeaway today.",
            "long_description": "It all started in 1958 in Wichita USA, when brothers Dan and Frank Carney opened the world's first Pizza Hut restaurant by borrowing $600 from their mum. It was the start of the biggest pizza name in the world, and in 1973, that fantastic pizza came to the UK. Since we came to the UK in 1973, we've been proud of our service and great food. We brought Deep Pan to the UK and we invented Stuffed Crust and Cheesy Bites. And we're not done there, we're still leading the way with our innovation, watch this space for future exciting products. We need your postcode to show you the menu and offers from your local Hut. Order Now Find my Hut. a19558781057.cdn.optimizely.com a19558781057.cdn.optimizely.com is blocked This page has been blocked by an extension Try disabling your extensions.",
            "business_tags": [
                "Pizza Hut",
                "Pizza Delivery",
                "Sides & Desserts",
                "Order Pizza",
                "Help & Services",
                "Beyond Meat"
            ],
            "main_business_category": "Pizza & Italian Restaurants",
            "main_industry": "Food & Beverage",
            "main_sector": null,
            "primary_phone": "+442920382291",
            "phone_numbers": [
                "+442920382291",
                "+443301230790",
                "+448000287034"
            ],
            "primary_email": "pizzahutukpressoffice@yum.com",
            "emails": [
                "contactus@pizzahut.co.uk"
            ],
            "other_emails": null,
            "website_url": "http://www.pizzahut.co.uk/",
            "website_domain": "pizzahut.co.uk",
            "website_tld": "co.uk",
            "website_language_code": "en",
            "facebook_url": "https://www.facebook.com/PizzaHutUK/",
            "twitter_url": "https://twitter.com/pizzahutuk",
            "instagram_url": "https://www.instagram.com/pizzahutuk/",
            "linkedin_url": "http://www.linkedin.com/company/pizza-hut-uk-yum-restaurants-international-",
            "ios_app_url": "tps://itunes.apple.com/gb/app/pizza-hut-uk-ordering-app/id8483791",
            "android_app_url": "tps://play.google.com/store/apps/details?id=com.pizzahutuk.orderingA",
            "youtube_url": "https://www.youtube.com/user/PizzaHutUKvideos",
            "cms": "contentful",
            "alexa_rank": 252062,
            "technologies": [
                "web servers: iis - 10.0",
                "analytics: facebook custom audiences",
                "paas: azure",
                "maps: google maps",
                "miscellaneous: webpack",
                "issue trackers: sentry",
                "analytics: optimizely",
                "web frameworks: microsoft asp.net",
                "paas: amazon web services",
                "javascript frameworks: react",
                "miscellaneous: onetrust",
                "font scripts: google font api",
                "cms: contentful",
                "miscellaneous: optanon",
                "widgets: facebook",
                "retargeting: facebook custom audiences",
                "a/b testing: optimizely",
                "cookie compliance: onetrust",
                "font scripts: font awesome",
                "operating systems: windows server",
                "customer data platform: emarsys",
                "seo tool: facebook friendly",
                "programming languages: node.js",
                "miscellaneous: pdf.js",
                "web servers: next.js",
                "tag managers: google tag manager",
                "retargeting: google remarketing tag",
                "web frameworks: next.js",
                "retargeting: facebook",
                "seo tool: twitter friendly",
                "javascript libraries: polyfill",
                "cdn: amazon cloudfront",
                "analytics: google analytics"
            ],
            "naics_2022": {
                "primary": {
                    "code": "722511",
                    "label": "Full-Service Restaurants"
                },
                "secondary": [
                    {
                        "code": "722330",
                        "label": "Mobile Food Services"
                    }
                ]
            },
            "nace_rev2": [
                {
                    "code": "56.1",
                    "label": "Restaurants and mobile food service activities"
                }
            ],
            "ncci_codes_28_1": [
                "9082"
            ],
            "sic": [
                {
                    "code": "5812",
                    "label": "Eating Places (full-service restaurants)"
                }
            ],
            "isic_v4": [
                {
                    "code": "5610",
                    "label": "Restaurants and mobile food service activities"
                }
            ],
            "sics_industry": {
                "code": "FB-RN",
                "label": "Restaurants"
            },
            "sics_subsector": {
                "code": "FB.4",
                "label": "Restaurants"
            },
            "sics_sector": {
                "code": "FB",
                "label": "Food & Beverage"
            },
            "ibc_insurance": null,
            "created_at": "2019-11-24T12:15:08.000Z",
            "last_updated_at": "2023-09-04T00:15:52.000Z"
        },
        {
            "soleadify_id": "b1695934-93e4-11eb-8859-29e7c34dee35",
            "company_name": "Nando's Beckton",
            "company_legal_names": [
                "Nando's Chickenland Limited.",
                "Nando's Group Holdings Limited"
            ],
            "company_commercial_names": [
                "Nando's Beckton",
                "Nando's UK & IRE"
            ],
            "main_country_code": "GB",
            "main_country": "United Kingdom",
            "main_region": "England",
            "main_city": "London",
            "main_street": "Upper Richmond Road",
            "main_street_number": "93,95,97,99",
            "main_postcode": "SW15 2TG",
            "main_latitude": 51.4597282409668,
            "main_longitude": -0.2129763811826706,
            "locations": [
                {
                    "country_code": "GB",
                    "country": "United Kingdom",
                    "region": "England",
                    "city": "Weston-super-Mare",
                    "postcode": "BS23 1FF",
                    "street": "Central Wak",
                    "street_number": "1",
                    "latitude": 51.345947265625,
                    "longitude": -2.9787585735321045
                },
                {
                    "country_code": "GB",
                    "country": "United Kingdom",
                    "region": "England",
                    "city": "Sheffield",
                    "postcode": "S1 4PA",
                    "street": "The Moor",
                    "street_number": "24",
                    "latitude": 53.37712860107422,
                    "longitude": -1.4732632637023926
                },
                {
                    "country_code": "GB",
                    "country": "United Kingdom",
                    "region": "England",
                    "city": "London",
                    "postcode": "TW10 6UA",
                    "street": "Hill Rise",
                    "street_number": "2-4",
                    "latitude": 51.458133697509766,
                    "longitude": -0.30518388748168945
                },
                {
                    "country_code": "GB",
                    "country": "United Kingdom",
                    "region": "England",
                    "city": "Bristol",
                    "postcode": "BS1 5NT",
                    "street": "Park Street",
                    "street_number": "49",
                    "latitude": 51.454367899999994,
                    "longitude": -2.6029119077046623
                },
                {
                    "country_code": "GB",
                    "country": "United Kingdom",
                    "region": "England",
                    "city": "Huddersfield",
                    "postcode": "HD1 1BR",
                    "street": "John William Street",
                    "street_number": "1-9",
                    "latitude": 53.6484582,
                    "longitude": -1.7829539
                },
                {
                    "country_code": "GB",
                    "country": "United Kingdom",
                    "region": "England",
                    "city": "Preston",
                    "postcode": "PR1 6QY",
                    "street": "Blackpool Road",
                    "street_number": "unit fc2d",
                    "latitude": 53.772254943847656,
                    "longitude": -2.6781721115112305
                },
                {
                    "country_code": "GB",
                    "country": "United Kingdom",
                    "region": "England",
                    "city": "Borehamwood",
                    "postcode": "WD6 1AG",
                    "street": "Shenley Road",
                    "street_number": "75-77",
                    "latitude": 51.65581512451172,
                    "longitude": -0.2757430076599121
                },
                {
                    "country_code": "GB",
                    "country": "United Kingdom",
                    "region": "England",
                    "city": "Hove",
                    "postcode": "BN1 1AG",
                    "street": "Duke Street",
                    "street_number": "34",
                    "latitude": 50.82288360595703,
                    "longitude": -0.14281320571899414
                },
                {
                    "country_code": "GB",
                    "country": "United Kingdom",
                    "region": "England",
                    "city": "Preston",
                    "postcode": "PR1 2AP",
                    "street": "Cheapside",
                    "street_number": "30-31",
                    "latitude": 53.7586749,
                    "longitude": -2.6992775
                },
                {
                    "country_code": "GB",
                    "country": "United Kingdom",
                    "region": "England",
                    "city": "London",
                    "postcode": "SE13 5LQ",
                    "street": "Lee High Road",
                    "street_number": "16",
                    "latitude": 51.4588885,
                    "longitude": -0.0021972
                }
            ],
            "num_locations": 464,
            "company_type": "Private",
            "year_founded": 1992,
            "employee_count": 6200,
            "estimated_revenue": 33500000,
            "short_description": "Find your nearest Nando’s restaurant to eat-in, takeaway or get Nando’s delivered.",
            "long_description": "We sometimes change our delivery areas based on demand - check if we're delivering to you. order delivery. Plan ahead and get your PERi-PERi to-go, from a restaurant near you. Find your local and grab a seat at the table. We're changing how we do things bite by bite.",
            "business_tags": [
                "Eating In",
                "A Seat At The Table",
                "Table For Two"
            ],
            "main_business_category": "Fast food Restaurants",
            "main_industry": "Food & Beverage",
            "main_sector": null,
            "primary_phone": "+442074749185",
            "phone_numbers": [
                "+442036570780",
                "+442073734446",
                "+442072592544",
                "+442032002096",
                "+442072431647",
                "+442076370708",
                "+441279969087",
                "+442039556869",
                "+442072611927",
                "+442075132864",
                "+442073875126",
                "+442074249363",
                "+442077130351",
                "+442072480651",
                "+442030751044",
                "+442072619006",
                "+442072880254",
                "+442073239791",
                "+442073929572",
                "+442077383808",
                "+442072835571",
                "+442074749185",
                "+441483340287",
                "+442076507775",
                "+442076369016",
                "+442073578662",
                "+442039735759",
                "+442073139506",
                "+442077376400",
                "+442072637447",
                "+441708680080",
                "+442073787810",
                "+442074354644",
                "+442074940932",
                "+442072530058",
                "+442076979788",
                "+442039855500",
                "+442076221475",
                "+442077295783",
                "+442070910898",
                "+442035970899",
                "+442073721507",
                "+442039742182",
                "+441293569776",
                "+442073868035",
                "+442037726976",
                "+442074249040",
                "+442072286221",
                "+442074908789"
            ],
            "primary_email": "customers@nandos.co.uk",
            "emails": [
                "customers@nandos.co.uk",
                "dpo@nandos.co.uk",
                "hello@nandos.co.uk"
            ],
            "other_emails": null,
            "website_url": "https://www.nandos.co.uk/",
            "website_domain": "nandos.co.uk",
            "website_tld": "co.uk",
            "website_language_code": "en",
            "facebook_url": "https://www.facebook.com/Nandos.UnitedKingdom/",
            "twitter_url": "https://twitter.com/NandosUK",
            "instagram_url": "https://www.instagram.com/nandosuk/",
            "linkedin_url": "http://www.linkedin.com/company/nando%e2%80%99s-uk-&-ire",
            "ios_app_url": "tps://apps.apple.com/gb/app/nandos/id4885748",
            "android_app_url": "tps://play.google.com/store/apps/details?id=nandos.android.app&hl=en_",
            "youtube_url": "https://www.youtube.com/channel/UCVgYYZS_7RE-Hh9dFVMo8Rw",
            "cms": "drupal",
            "alexa_rank": 279314,
            "technologies": [
                "reverse proxy: envoy",
                "javascript frameworks: react",
                "web frameworks: express",
                "javascript libraries: modernizr",
                "reverse proxy: nginx",
                "web servers: express",
                "cdn: jsdelivr",
                "security: imperva",
                "javascript frameworks: modernizr",
                "seo tool: facebook friendly",
                "programming languages: node.js",
                "cms: drupal",
                "tag managers: google tag manager",
                "seo tool: twitter friendly",
                "web servers: nginx",
                "programming languages: php",
                "programming languages: java"
            ],
            "naics_2022": {
                "primary": {
                    "code": "722513",
                    "label": "Limited-Service Restaurants"
                },
                "secondary": [
                    {
                        "code": "722330",
                        "label": "Mobile Food Services"
                    }
                ]
            },
            "nace_rev2": [
                {
                    "code": "56.1",
                    "label": "Restaurants and mobile food service activities"
                }
            ],
            "ncci_codes_28_1": [
                "9082",
                "9083"
            ],
            "sic": [
                {
                    "code": "5812",
                    "label": "Eating Places (limited-service restaurants)"
                }
            ],
            "isic_v4": [
                {
                    "code": "5610",
                    "label": "Restaurants and mobile food service activities"
                }
            ],
            "sics_industry": {
                "code": "FB-RN",
                "label": "Restaurants"
            },
            "sics_subsector": {
                "code": "FB.4",
                "label": "Restaurants"
            },
            "sics_sector": {
                "code": "FB",
                "label": "Food & Beverage"
            },
            "ibc_insurance": null,
            "created_at": "2020-01-06T19:08:44.000Z",
            "last_updated_at": "2023-08-19T11:12:22.000Z"
        },
        {
            "soleadify_id": "0fd17071-93e5-11eb-be5a-4f810ab55f2e",
            "company_name": "Las Iguanas Ltd.",
            "company_legal_names": [
                "Las Iguanas Ltd."
            ],
            "company_commercial_names": [
                "Las Iguanas",
                "Las Iguanas Delivery & Takeaway",
                "Las Iguanas Our Policies",
                "Las Iguanas Offers & Discounts"
            ],
            "main_country_code": "GB",
            "main_country": "United Kingdom",
            "main_region": "England",
            "main_city": "London",
            "main_street": "Peninsula Square",
            "main_street_number": "the o2",
            "main_postcode": "SE10 0DX",
            "main_latitude": 51.50293731689453,
            "main_longitude": 0.003202927764505148,
            "locations": [
                {
                    "country_code": "GB",
                    "country": "United Kingdom",
                    "region": "England",
                    "city": "Wiltshire",
                    "postcode": "BA12 7PU",
                    "street": null,
                    "street_number": null,
                    "latitude": null,
                    "longitude": null
                },
                {
                    "country_code": "GB",
                    "country": "United Kingdom",
                    "region": "England",
                    "city": "Bristol",
                    "postcode": "BS6 6LT",
                    "street": "Westfield Park",
                    "street_number": "5",
                    "latitude": 51.467437744140625,
                    "longitude": -2.6113858222961426
                },
                {
                    "country_code": "GB",
                    "country": "United Kingdom",
                    "region": "England",
                    "city": "Liverpool",
                    "postcode": "L1 8JF",
                    "street": "Paradise Street",
                    "street_number": "14",
                    "latitude": 53.40211486816406,
                    "longitude": -2.985992908477783
                },
                {
                    "country_code": "GB",
                    "country": "United Kingdom",
                    "region": "England",
                    "city": "Canterbury",
                    "postcode": "CT1 2JS",
                    "street": "Longmarket",
                    "street_number": "5",
                    "latitude": 51.278404235839844,
                    "longitude": 1.081769585609436
                },
                {
                    "country_code": "GB",
                    "country": "United Kingdom",
                    "region": "England",
                    "city": "Basingstoke",
                    "postcode": "RG21 7BB",
                    "street": "Festival Way",
                    "street_number": null,
                    "latitude": null,
                    "longitude": null
                },
                {
                    "country_code": "GB",
                    "country": "United Kingdom",
                    "region": "England",
                    "city": "Watford",
                    "postcode": "WD17 2DJ",
                    "street": "High Street",
                    "street_number": "61-63",
                    "latitude": 51.653743743896484,
                    "longitude": -0.39307770133018494
                },
                {
                    "country_code": "GB",
                    "country": "United Kingdom",
                    "region": "England",
                    "city": "Chelmsford",
                    "postcode": "CM1 1GD",
                    "street": "Bond Street",
                    "street_number": "123-125",
                    "latitude": 51.73371887207031,
                    "longitude": 0.476031094789505
                },
                {
                    "country_code": "GB",
                    "country": "United Kingdom",
                    "region": "England",
                    "city": "Central Bedfordshire",
                    "postcode": "MK45 2HZ",
                    "street": null,
                    "street_number": null,
                    "latitude": null,
                    "longitude": null
                },
                {
                    "country_code": "GB",
                    "country": "United Kingdom",
                    "region": "England",
                    "city": "Thurrock",
                    "postcode": "RM20 2ZN",
                    "street": null,
                    "street_number": null,
                    "latitude": null,
                    "longitude": null
                },
                {
                    "country_code": "GB",
                    "country": "United Kingdom",
                    "region": "England",
                    "city": "Ellesmere Port",
                    "postcode": "CH65 9HD",
                    "street": "Cheshire Oaks Way",
                    "street_number": null,
                    "latitude": null,
                    "longitude": null
                }
            ],
            "num_locations": 54,
            "company_type": "Private",
            "year_founded": 1991,
            "employee_count": 580,
            "estimated_revenue": 56000,
            "short_description": "Las Iguanas is the UK's original and most successful Latin American restaurant operator leading the way in contemporary Latin food & drink, vibrant, evocative environments and superb hospitality.",
            "long_description": "Las Iguanas is a casual dining restaurant chain originating from the UK, with a Latin American theme. Founded in 1991, it operated 57 outlets in the UK as of July 2019. It specialises in Latin American food from Brazil, Mexico and beyond.",
            "business_tags": [
                "Bottomless Brunch",
                "Cocktails",
                "Cocktail & Dinner",
                "Drinks & Bars",
                "Vegan Restaurants",
                "American Bar",
                "Cocktail Club",
                "Kids' Menu",
                "Cocktails & Drinks",
                "Parties And Groups"
            ],
            "main_business_category": "Latin American Restaurants",
            "main_industry": "Food & Beverage",
            "main_sector": "Accommodation & Food Services",
            "primary_phone": "+442076201328",
            "phone_numbers": [
                "+442076201328"
            ],
            "primary_email": null,
            "emails": null,
            "other_emails": null,
            "website_url": "https://www.iguanas.co.uk/",
            "website_domain": "iguanas.co.uk",
            "website_tld": "co.uk",
            "website_language_code": "en",
            "facebook_url": "https://facebook.com/lasiguanasuk",
            "twitter_url": "https://twitter.com/lasiguanas",
            "instagram_url": "https://instagram.com/lasiguanas",
            "linkedin_url": "https://linkedin.com/company/las-iguanas",
            "ios_app_url": null,
            "android_app_url": null,
            "youtube_url": null,
            "cms": "contentful",
            "alexa_rank": null,
            "technologies": [
                "analytics: tiktok pixel",
                "analytics: facebook custom audiences",
                "miscellaneous: webpack",
                "javascript frameworks: nuxt.js",
                "javascript frameworks: vue.js",
                "cms: contentful",
                "widgets: facebook",
                "retargeting: facebook custom audiences",
                "captchas: recaptcha",
                "font scripts: font awesome",
                "seo tool: facebook friendly",
                "programming languages: node.js",
                "tag managers: google tag manager",
                "retargeting: google remarketing tag",
                "retargeting: facebook",
                "analytics: facebook pixel",
                "cdn: cloudflare",
                "analytics: google analytics"
            ],
            "naics_2022": {
                "primary": {
                    "code": "722511",
                    "label": "Full-Service Restaurants"
                },
                "secondary": [
                    {
                        "code": "722513",
                        "label": "Limited-Service Restaurants"
                    }
                ]
            },
            "nace_rev2": [
                {
                    "code": "56.1",
                    "label": "Restaurants and mobile food service activities"
                }
            ],
            "ncci_codes_28_1": [
                "9082"
            ],
            "sic": [
                {
                    "code": "5812",
                    "label": "Eating Places (full-service restaurants)"
                }
            ],
            "isic_v4": [
                {
                    "code": "5610",
                    "label": "Restaurants and mobile food service activities"
                }
            ],
            "sics_industry": {
                "code": "FB-RN",
                "label": "Restaurants"
            },
            "sics_subsector": {
                "code": "FB.4",
                "label": "Restaurants"
            },
            "sics_sector": {
                "code": "FB",
                "label": "Food & Beverage"
            },
            "ibc_insurance": null,
            "created_at": "2019-11-23T23:37:42.000Z",
            "last_updated_at": "2023-08-20T00:40:02.000Z"
        }
    ]
}
